{
"type": "FeatureCollection",
"features": [
{ "type": "Feature", "properties": { "자치구": "중랑구", "행정동코드": 1126068000, "법정동": "신내동", "행정동": "신내1동", "시설명": "중랑1호점 신내동우리동네키움센터(중랑아동돌봄센터)", "주소": "서울특별시 중랑구 신내역로1길 145", "Latitude": 37.6171078, "Longitude": 127.1067657 }, "geometry": { "type": "Point", "coordinates": [ 127.1067657, 37.6171078 ] } },
{ "type": "Feature", "properties": { "자치구": "중구", "행정동코드": 1114065000, "법정동": "신당동", "행정동": "신당제5동", "시설명": "중구5호점 우리동네키움센터(모든아이 신당5동센터)", "주소": "서울특별시 중구 다산로44길 85", "Latitude": 37.5650876, "Longitude": 127.0218523 }, "geometry": { "type": "Point", "coordinates": [ 127.0218523, 37.5650876 ] } },
{ "type": "Feature", "properties": { "자치구": "중구", "행정동코드": 1114063500, "법정동": "신당동", "행정동": "약수동", "시설명": "중구4호점 우리동네키움센터(모든아이 약수센터)", "주소": "서울특별시 중구 동호로5길 19", "Latitude": 37.5517795, "Longitude": 127.0125774 }, "geometry": { "type": "Point", "coordinates": [ 127.0125774, 37.5517795 ] } },
{ "type": "Feature", "properties": { "자치구": "중구", "행정동코드": 1114068000, "법정동": "만리동1가", "행정동": "중림동", "시설명": "중구3호점 우리동네키움센터(모든아이 손기정센터)", "주소": "서울특별시 중구 손기정로 101", "Latitude": 37.5556652, "Longitude": 126.9645497 }, "geometry": { "type": "Point", "coordinates": [ 126.9645497, 37.5556652 ] } },
{ "type": "Feature", "properties": { "자치구": "중구", "행정동코드": 1138058000, "법정동": "중림동", "행정동": "응암제1동", "시설명": "중구2호점 우리동네키움센터(모든아이 중림센터)", "주소": "서울특별시 중구 서소문로6길 16", "Latitude": 37.598391, "Longitude": 126.9181967 }, "geometry": { "type": "Point", "coordinates": [ 126.9181967, 37.598391 ] } },
{ "type": "Feature", "properties": { "자치구": "중구", "행정동코드": 1114061500, "법정동": "신당동", "행정동": "신당동", "시설명": "중구1호점 우리동네키움센터(모든아이 신당센터)", "주소": "서울특별시 중구 다산로29길 10", "Latitude": 37.5610528, "Longitude": 127.0135247 }, "geometry": { "type": "Point", "coordinates": [ 127.0135247, 37.5610528 ] } },
{ "type": "Feature", "properties": { "자치구": "종로구", "행정동코드": 1111051500, "법정동": "신교동", "행정동": "청운효자동", "시설명": "종로1호점 우리동네키움센터", "주소": "서울시 종로구 필운대로 86", "Latitude": 37.5834681, "Longitude": 126.9673983 }, "geometry": { "type": "Point", "coordinates": [ 126.9673983, 37.5834681 ] } },
{ "type": "Feature", "properties": { "자치구": "은평구", "행정동코드": 1138062500, "법정동": "역촌동", "행정동": "역촌동", "시설명": "은평4호점 우리동네키움센터(역촌)", "주소": "서울특별시 은평구 진흥로7나길 12-5", "Latitude": 37.6053078, "Longitude": 126.9192502 }, "geometry": { "type": "Point", "coordinates": [ 126.9192502, 37.6053078 ] } },
{ "type": "Feature", "properties": { "자치구": "은평구", "행정동코드": 1138059000, "법정동": "응암동", "행정동": "응암제2동", "시설명": "은평3호점 우리동네키움센터(응암)", "주소": "서울특별시 은평구 백련산로 38", "Latitude": 37.590336, "Longitude": 126.922937 }, "geometry": { "type": "Point", "coordinates": [ 126.922937, 37.590336 ] } },
{ "type": "Feature", "properties": { "자치구": "은평구", "행정동코드": 1138055200, "법정동": "갈현동", "행정동": "갈현제2동", "시설명": "은평2호점 우리동네키움센터(갈현)", "주소": "서울특별시 은평구 연서로25길 22", "Latitude": 37.6174311, "Longitude": 126.916704 }, "geometry": { "type": "Point", "coordinates": [ 126.916704, 37.6174311 ] } },
{ "type": "Feature", "properties": { "자치구": "은평구", "행정동코드": 1138069000, "법정동": "진관동", "행정동": "진관동", "시설명": "은평1호점 우리동네키움센터(진관)", "주소": "서울특별시 은평구 통일로 1045", "Latitude": 37.6362574, "Longitude": 126.9165187 }, "geometry": { "type": "Point", "coordinates": [ 126.9165187, 37.6362574 ] } },
{ "type": "Feature", "properties": { "자치구": "용산구", "행정동코드": 1117070000, "법정동": "한강로3가", "행정동": "보광동", "시설명": "용산6호점 우리동네키움센터", "주소": "서울특별시 용산구 서빙고로 17", "Latitude": 37.5266912, "Longitude": 126.998249 }, "geometry": { "type": "Point", "coordinates": [ 126.998249, 37.5266912 ] } },
{ "type": "Feature", "properties": { "자치구": "용산구", "행정동코드": 1117059000, "법정동": "신창동", "행정동": "용문동", "시설명": "용산5호점 우리동네키움센터", "주소": "서울특별시 용산구 효창원로 39", "Latitude": 37.5374366, "Longitude": 126.9589625 }, "geometry": { "type": "Point", "coordinates": [ 126.9589625, 37.5374366 ] } },
{ "type": "Feature", "properties": { "자치구": "용산구", "행정동코드": 1117058000, "법정동": "청파동3가", "행정동": "효창동", "시설명": "용산4호점 우리동네키움센터", "주소": "서울특별시 용산구 효창원로 160", "Latitude": 37.5422423, "Longitude": 126.9625842 }, "geometry": { "type": "Point", "coordinates": [ 126.9625842, 37.5422423 ] } },
{ "type": "Feature", "properties": { "자치구": "용산구", "행정동코드": 1117068500, "법정동": "한남동", "행정동": "한남동", "시설명": "용산3호점 우리동네키움센터", "주소": "서울특별시 용산구 이태원로36길 7", "Latitude": 37.5347056, "Longitude": 126.9994026 }, "geometry": { "type": "Point", "coordinates": [ 126.9994026, 37.5347056 ] } },
{ "type": "Feature", "properties": { "자치구": "용산구", "행정동코드": 1117064000, "법정동": "이촌동", "행정동": "이촌제2동", "시설명": "용산2호점 우리동네키움센터", "주소": "서울특별시 용산구 이촌로2가길 75", "Latitude": 37.5268077, "Longitude": 126.9542371 }, "geometry": { "type": "Point", "coordinates": [ 126.9542371, 37.5268077 ] } },
{ "type": "Feature", "properties": { "자치구": "용산구", "행정동코드": 1117056000, "법정동": "원효로2가", "행정동": "원효로제1동", "시설명": "용산1호점 우리동네키움센터", "주소": "서울특별시 용산구 원효로64길 25", "Latitude": 37.5353472, "Longitude": 126.9645037 }, "geometry": { "type": "Point", "coordinates": [ 126.9645037, 37.5353472 ] } },
{ "type": "Feature", "properties": { "자치구": "영등포구", "행정동코드": 1156054000, "법정동": "여의도동", "행정동": "여의동", "시설명": "영등포5호점 우리동네키움센터(여의동 아이랜드)", "주소": "서울특별시 영등포구 여의대방로 386", "Latitude": 37.5188582, "Longitude": 126.9319282 }, "geometry": { "type": "Point", "coordinates": [ 126.9319282, 37.5188582 ] } },
{ "type": "Feature", "properties": { "자치구": "영등포구", "행정동코드": 1156060500, "법정동": "문래동6가", "행정동": "문래동", "시설명": "영등포4호점 우리동네키움센터(문래동 아이랜드)", "주소": "서울특별시 영등포구 선유로 63", "Latitude": 37.5195897, "Longitude": 126.8890304 }, "geometry": { "type": "Point", "coordinates": [ 126.8890304, 37.5195897 ] } },
{ "type": "Feature", "properties": { "자치구": "영등포구", "행정동코드": 1156070000, "법정동": "대림동", "행정동": "대림제1동", "시설명": "영등포3호점 우리동네키움센터(대림1동 아이랜드)", "주소": "서울특별시 영등포구 시흥대로183길 9-2", "Latitude": 37.4912132, "Longitude": 126.9065995 }, "geometry": { "type": "Point", "coordinates": [ 126.9065995, 37.4912132 ] } },
{ "type": "Feature", "properties": { "자치구": "영등포구", "행정동코드": 1156055000, "법정동": "당산동3가", "행정동": "당산제1동", "시설명": "영등포2호점 우리동네키움센터(당산1동 아이랜드)", "주소": "서울특별시 영등포구 당산로29길 9", "Latitude": 37.5259388, "Longitude": 126.8939684 }, "geometry": { "type": "Point", "coordinates": [ 126.8939684, 37.5259388 ] } },
{ "type": "Feature", "properties": { "자치구": "영등포구", "행정동코드": 1156051500, "법정동": "신길동", "행정동": "영등포본동", "시설명": "영등포1호점 우리동네키움센터(영등포본동 아이랜드)", "주소": "서울특별시 영등포구 신길로60길 31-2", "Latitude": 37.5134477, "Longitude": 126.9137679 }, "geometry": { "type": "Point", "coordinates": [ 126.9137679, 37.5134477 ] } },
{ "type": "Feature", "properties": { "자치구": "양천구", "행정동코드": 1147064000, "법정동": "신정동", "행정동": "신정3동", "시설명": "양천1호점 우리동네키움센터", "주소": "서울특별시 양천구 신정로11길 20", "Latitude": 37.5118742, "Longitude": 126.8391993 }, "geometry": { "type": "Point", "coordinates": [ 126.8391993, 37.5118742 ] } },
{ "type": "Feature", "properties": { "자치구": "송파구", "행정동코드": 1171064200, "법정동": "문정동", "행정동": "문정2동", "시설명": "송파6호점 우리동네키움센터(문정2동 송파키움센터)", "주소": "서울특별시 송파구 중대로4길 4", "Latitude": 37.4896609, "Longitude": 127.1112312 }, "geometry": { "type": "Point", "coordinates": [ 127.1112312, 37.4896609 ] } },
{ "type": "Feature", "properties": { "자치구": "송파구", "행정동코드": 1171062000, "법정동": "가락동", "행정동": "가락본동", "시설명": "송파5호점 우리동네키움센터(가락본동 송파키움센터)", "주소": "서울특별시 송파구 오금로36길 36", "Latitude": 37.500689, "Longitude": 127.1234145 }, "geometry": { "type": "Point", "coordinates": [ 127.1234145, 37.500689 ] } },
{ "type": "Feature", "properties": { "자치구": "송파구", "행정동코드": 1171056100, "법정동": "가락동", "행정동": "방이1동", "시설명": "송파4호점 우리동네키움센터(가락1동 송파키움센터)", "주소": "서울특별시 송파구 양재대로 925", "Latitude": 37.50885, "Longitude": 127.1247641 }, "geometry": { "type": "Point", "coordinates": [ 127.1247641, 37.50885 ] } },
{ "type": "Feature", "properties": { "자치구": "송파구", "행정동코드": 1171061000, "법정동": "삼전동", "행정동": "삼전동", "시설명": "송파3호점 우리동네키움센터(삼전동 송파키움센터)", "주소": "서울특별시 송파구 백제고분로32길 35", "Latitude": 37.4990868, "Longitude": 127.0949606 }, "geometry": { "type": "Point", "coordinates": [ 127.0949606, 37.4990868 ] } },
{ "type": "Feature", "properties": { "자치구": "송파구", "행정동코드": 1171058000, "법정동": "송파동", "행정동": "송파1동", "시설명": "송파2호점 우리동네키움센터(송파1동 송파키움센터)", "주소": "서울특별시 송파구 백제고분로 42길 5", "Latitude": 37.5058964, "Longitude": 127.1097053 }, "geometry": { "type": "Point", "coordinates": [ 127.1097053, 37.5058964 ] } },
{ "type": "Feature", "properties": { "자치구": "송파구", "행정동코드": 1171065000, "법정동": "잠실동", "행정동": "잠실본동", "시설명": "송파1호점 우리동네키움센터(잠실본동 송파키움센터)", "주소": "서울특별시 송파구 올림픽로8길 22", "Latitude": 37.5093904, "Longitude": 127.0802682 }, "geometry": { "type": "Point", "coordinates": [ 127.0802682, 37.5093904 ] } },
{ "type": "Feature", "properties": { "자치구": "성북구", "행정동코드": 1129076000, "법정동": "장위동", "행정동": "장위제1동", "시설명": "성북1호점 우리동네키움센터(별별재미난교실)", "주소": "서울시 성북구 돌곶이로 37길 32-4", "Latitude": 37.6162299, "Longitude": 127.0468964 }, "geometry": { "type": "Point", "coordinates": [ 127.0468964, 37.6162299 ] } },
{ "type": "Feature", "properties": { "자치구": "성동구", "행정동코드": 1120055000, "법정동": "사근동", "행정동": "사근동", "시설명": "성동9호점 우리동네키움센터(사근동아이꿈누리터)", "주소": "서울특별시 성동구 사근동길 37", "Latitude": 37.5611752, "Longitude": 127.0458472 }, "geometry": { "type": "Point", "coordinates": [ 127.0458472, 37.5611752 ] } },
{ "type": "Feature", "properties": { "자치구": "성동구", "행정동코드": 1120054000, "법정동": "마장동", "행정동": "마장동", "시설명": "성동8호점 우리동네키움센터(성동복지관아이꿈누리터)", "주소": "서울특별시 성동구 청계천로 506", "Latitude": 37.5704464, "Longitude": 127.033811 }, "geometry": { "type": "Point", "coordinates": [ 127.033811, 37.5704464 ] } },
{ "type": "Feature", "properties": { "자치구": "성동구", "행정동코드": 1120064500, "법정동": "옥수동", "행정동": "옥수동", "시설명": "성동7호점 우리동네키움센터(옥수복지관아이꿈누리터)", "주소": "서울특별시 성동구 한림말길 16-5", "Latitude": 37.5404159, "Longitude": 127.0127183 }, "geometry": { "type": "Point", "coordinates": [ 127.0127183, 37.5404159 ] } },
{ "type": "Feature", "properties": { "자치구": "성동구", "행정동코드": 1120066000, "법정동": "성수동1가", "행정동": "성수1가제2동", "시설명": "성동6호점 우리동네키움센터(성수쌍용아이꿈누리터)", "주소": "서울특별시 성동구 상원길63 쌍용아파트", "Latitude": 37.5495103, "Longitude": 127.0469355 }, "geometry": { "type": "Point", "coordinates": [ 127.0469355, 37.5495103 ] } },
{ "type": "Feature", "properties": { "자치구": "성동구", "행정동코드": 1120065000, "법정동": "성수동1가", "행정동": "성수1가제1동", "시설명": "성동5호점 우리동네키움센터(성수복지관아이꿈누리터)", "주소": "서울특별시 성동구 뚝섬로1길 43", "Latitude": 37.5454017, "Longitude": 127.0469567 }, "geometry": { "type": "Point", "coordinates": [ 127.0469567, 37.5454017 ] } },
{ "type": "Feature", "properties": { "자치구": "성동구", "행정동코드": 1120058000, "법정동": "응봉동", "행정동": "응봉동", "시설명": "성동4호점 우리동네키움센터(응봉아이꿈누리터)", "주소": "서울특별시 성동구 독서당로 381", "Latitude": 37.5509707, "Longitude": 127.0309944 }, "geometry": { "type": "Point", "coordinates": [ 127.0309944, 37.5509707 ] } },
{ "type": "Feature", "properties": { "자치구": "성동구", "행정동코드": 1120054000, "법정동": "마장동", "행정동": "마장동", "시설명": "성동3호점 우리동네키움센터(마장아이꿈누리터)", "주소": "서울특별시 성동구 마장로39길 33", "Latitude": 37.5681479, "Longitude": 127.0431128 }, "geometry": { "type": "Point", "coordinates": [ 127.0431128, 37.5681479 ] } },
{ "type": "Feature", "properties": { "자치구": "성동구", "행정동코드": 1120054000, "법정동": "상왕십리동", "행정동": "마장동", "시설명": "성동2호점 우리동네키움센터(왕십리도선동아이꿈누리터)", "주소": "서울특별시 성동구 마장로 141", "Latitude": 37.5663079, "Longitude": 127.0369547 }, "geometry": { "type": "Point", "coordinates": [ 127.0369547, 37.5663079 ] } },
{ "type": "Feature", "properties": { "자치구": "성동구", "행정동코드": 1120052000, "법정동": "하왕십리동", "행정동": "왕십리제2동", "시설명": "성동1호점 우리동네키움센터(스위첸아이꿈누리터)", "주소": "서울특별시 성동구 무학봉길 35 KCC스위첸아파트", "Latitude": 37.5604626, "Longitude": 127.0269538 }, "geometry": { "type": "Point", "coordinates": [ 127.0269538, 37.5604626 ] } },
{ "type": "Feature", "properties": { "자치구": "성동구", "행정동코드": 1120062000, "법정동": "금호동4가", "행정동": "금호4가동", "시설명": "성동10호점 우리동네키움센터(금호대우 아이꿈누리터)", "주소": "서울특별시 성동구 독서당로 272", "Latitude": 37.5459238, "Longitude": 127.019517 }, "geometry": { "type": "Point", "coordinates": [ 127.019517, 37.5459238 ] } },
{ "type": "Feature", "properties": { "자치구": "서초구", "행정동코드": 1165065100, "법정동": "우면동", "행정동": "양재1동", "시설명": "서초1호점 우리동네키움센터(서초구립 우면동 초등키움센터)", "주소": "서울특별시 서초구 양재대로2길 116-19", "Latitude": 37.456781, "Longitude": 127.0161436 }, "geometry": { "type": "Point", "coordinates": [ 127.0161436, 37.456781 ] } },
{ "type": "Feature", "properties": { "자치구": "서대문구", "행정동코드": 1141071000, "법정동": "북가좌동", "행정동": "북가좌제1동", "시설명": "서대문1호점 우리동네키움센터(북가좌 우리동네키움센터 친구랑)", "주소": "서울특별시 서대문구 거북골로 195-1", "Latitude": 37.5781252, "Longitude": 126.9090217 }, "geometry": { "type": "Point", "coordinates": [ 126.9090217, 37.5781252 ] } },
{ "type": "Feature", "properties": { "자치구": "마포구", "행정동코드": 1144069000, "법정동": "망원동", "행정동": "망원제1동", "시설명": "마포2호점 우리동네키움센터(망원1동)", "주소": "서울시 마포구 희우정로 77", "Latitude": 37.5527613, "Longitude": 126.903691 }, "geometry": { "type": "Point", "coordinates": [ 126.903691, 37.5527613 ] } },
{ "type": "Feature", "properties": { "자치구": "마포구", "행정동코드": 1144073000, "법정동": "성산동", "행정동": "성산제2동", "시설명": "마포1호점 우리동네키움센터(성산2동)", "주소": "서울특별시 마포구 월드컵로 36길52,", "Latitude": 37.5684146, "Longitude": 126.9057912 }, "geometry": { "type": "Point", "coordinates": [ 126.9057912, 37.5684146 ] } },
{ "type": "Feature", "properties": { "자치구": "동작구", "행정동코드": 1159065100, "법정동": "사당동", "행정동": "사당제5동", "시설명": "동작3호점 우리동네키움센터(사당5동)", "주소": "서울특별시 동작구 사당로 154", "Latitude": 37.4875456, "Longitude": 126.9665117 }, "geometry": { "type": "Point", "coordinates": [ 126.9665117, 37.4875456 ] } },
{ "type": "Feature", "properties": { "자치구": "동작구", "행정동코드": 1159067000, "법정동": "신대방동", "행정동": "신대방제1동", "시설명": "동작2호점 우리동네키움센터(신대방1동)", "주소": "서울특별시 동작구 신대방2길 42-10", "Latitude": 37.4894135, "Longitude": 126.9126144 }, "geometry": { "type": "Point", "coordinates": [ 126.9126144, 37.4894135 ] } },
{ "type": "Feature", "properties": { "자치구": "동작구", "행정동코드": 1159052000, "법정동": "노량진동", "행정동": "노량진제2동", "시설명": "동작1호점 우리동네키움센터(노량진2동)", "주소": "서울특별시 동작구 장승배기로 19길 50", "Latitude": 37.5082472, "Longitude": 126.937176 }, "geometry": { "type": "Point", "coordinates": [ 126.937176, 37.5082472 ] } },
{ "type": "Feature", "properties": { "자치구": "동대문구", "행정동코드": 1123066000, "법정동": "장안동", "행정동": "장안제2동", "시설명": "동대문2호점 우리동네키움센터(라온)", "주소": "서울특별시 동대문구 답십리로63길 73", "Latitude": 37.5757804, "Longitude": 127.0688904 }, "geometry": { "type": "Point", "coordinates": [ 127.0688904, 37.5757804 ] } },
{ "type": "Feature", "properties": { "자치구": "동대문구", "행정동코드": 1123053600, "법정동": "용두동", "행정동": "용신동", "시설명": "동대문1호점 우리동네키움센터(희망)", "주소": "서울특별시 동대문구 무학로 133", "Latitude": 37.5760752, "Longitude": 127.0303012 }, "geometry": { "type": "Point", "coordinates": [ 127.0303012, 37.5760752 ] } },
{ "type": "Feature", "properties": { "자치구": "도봉구", "행정동코드": 1132051100, "법정동": "창동", "행정동": "창제1동", "시설명": "도봉4호점 우리동네키움센터(창1동 별별키움센터)", "주소": "서울특별시 도봉구 해등로 50", "Latitude": 37.6500415, "Longitude": 127.0436076 }, "geometry": { "type": "Point", "coordinates": [ 127.0436076, 37.6500415 ] } },
{ "type": "Feature", "properties": { "자치구": "도봉구", "행정동코드": 1132052200, "법정동": "도봉동", "행정동": "도봉제2동", "시설명": "도봉3호점 우리동네키움센터(도봉2동 별별키움센터)", "주소": "서울특별시 도봉구 마들로 859-19", "Latitude": 37.6857879, "Longitude": 127.0479503 }, "geometry": { "type": "Point", "coordinates": [ 127.0479503, 37.6857879 ] } },
{ "type": "Feature", "properties": { "자치구": "도봉구", "행정동코드": 1132052100, "법정동": "도봉동", "행정동": "도봉제1동", "시설명": "도봉2호점 우리동네키움센터(도봉1동 별별키움센터)", "주소": "서울시 도봉구 도봉로 175길 10", "Latitude": 37.6829589, "Longitude": 127.0428608 }, "geometry": { "type": "Point", "coordinates": [ 127.0428608, 37.6829589 ] } },
{ "type": "Feature", "properties": { "자치구": "노원구", "행정동코드": 1135072000, "법정동": "상계동", "행정동": "상계10동", "시설명": "노원9호점 우리동네키움센터(상계7단지아이휴센터)", "주소": "서울특별시 노원구 동일로 1456", "Latitude": 37.6588121, "Longitude": 127.0605385 }, "geometry": { "type": "Point", "coordinates": [ 127.0605385, 37.6588121 ] } },
{ "type": "Feature", "properties": { "자치구": "노원구", "행정동코드": 1135058000, "법정동": "월계동", "행정동": "월계3동", "시설명": "노원8호점 우리동네키움센터(월계그랑빌아이휴센터)", "주소": "서울특별시 노원구 마들로 31", "Latitude": 37.6176466, "Longitude": 127.0685939 }, "geometry": { "type": "Point", "coordinates": [ 127.0685939, 37.6176466 ] } },
{ "type": "Feature", "properties": { "자치구": "노원구", "행정동코드": 1135061200, "법정동": "하계동", "행정동": "하계2동", "시설명": "노원7호점 우리동네키움센터(하계극동아이휴센터)", "주소": "서울특별시 노원구 섬밭로 229", "Latitude": 37.6354318, "Longitude": 127.0644563 }, "geometry": { "type": "Point", "coordinates": [ 127.0644563, 37.6354318 ] } },
{ "type": "Feature", "properties": { "자치구": "노원구", "행정동코드": 1135060000, "법정동": "공릉동", "행정동": "공릉2동", "시설명": "노원6호점 우리동네키움센터(공릉태강아이휴센터)", "주소": "서울시 노원구 공릉로 34길 62 태강아파트", "Latitude": 37.6235019, "Longitude": 127.083041 }, "geometry": { "type": "Point", "coordinates": [ 127.083041, 37.6235019 ] } },
{ "type": "Feature", "properties": { "자치구": "노원구", "행정동코드": 1135069500, "법정동": "상계동", "행정동": "상계6.7동", "시설명": "노원5호점 우리동네키움센터(상계3단지아이휴센터)", "주소": "서울특별시 노원구 동일로 215길 48 (상계주공3단지아파트)", "Latitude": 37.6520258, "Longitude": 127.0583204 }, "geometry": { "type": "Point", "coordinates": [ 127.0583204, 37.6520258 ] } },
{ "type": "Feature", "properties": { "자치구": "노원구", "행정동코드": 1135056000, "법정동": "월계동", "행정동": "월계1동", "시설명": "노원4호점 우리동네키움센터(달빛마실아이휴센터)", "주소": "서울특별시 노원구 광운로13길 9", "Latitude": 37.6212474, "Longitude": 127.0587561 }, "geometry": { "type": "Point", "coordinates": [ 127.0587561, 37.6212474 ] } },
{ "type": "Feature", "properties": { "자치구": "노원구", "행정동코드": 1135067000, "법정동": "상계동", "행정동": "상계5동", "시설명": "노원3호점 우리동네키움센터(상계5동간촌아이휴센터)", "주소": "서울특별시 노원구 한글비석로49길 36", "Latitude": 37.6626284, "Longitude": 127.0662652 }, "geometry": { "type": "Point", "coordinates": [ 127.0662652, 37.6626284 ] } },
{ "type": "Feature", "properties": { "자치구": "노원구", "행정동코드": 1135070000, "법정동": "상계동", "행정동": "상계8동", "시설명": "노원2호점 우리동네키움센터(상계10단지아이휴센터)", "주소": "서울특별시 노원구 노원로 564", "Latitude": 37.6629991, "Longitude": 127.05545 }, "geometry": { "type": "Point", "coordinates": [ 127.05545, 37.6629991 ] } },
{ "type": "Feature", "properties": { "자치구": "노원구", "행정동코드": 1135071000, "법정동": "상계동", "행정동": "상계9동", "시설명": "노원22호점 우리동네키움센터(상계보람2단지 아이휴센터)", "주소": "서울특별시 노원구 한글비석로 480", "Latitude": 37.6662467, "Longitude": 127.0649923 }, "geometry": { "type": "Point", "coordinates": [ 127.0649923, 37.6662467 ] } },
{ "type": "Feature", "properties": { "자치구": "노원구", "행정동코드": 1135071000, "법정동": "상계동", "행정동": "상계9동", "시설명": "노원21호점 우리동네키움센터(상계12단지 아이휴센터)", "주소": "서울특별시 노원구 한글비석로 530", "Latitude": 37.6660832, "Longitude": 127.0592794 }, "geometry": { "type": "Point", "coordinates": [ 127.0592794, 37.6660832 ] } },
{ "type": "Feature", "properties": { "자치구": "노원구", "행정동코드": 1135063000, "법정동": "상계동", "행정동": "상계1동", "시설명": "노원20호점 우리동네키움센터(상계두산 융합형 아이휴센터)", "주소": "서울특별시 노원구 동일로241길 53", "Latitude": 37.6773709, "Longitude": 127.0531456 }, "geometry": { "type": "Point", "coordinates": [ 127.0531456, 37.6773709 ] } },
{ "type": "Feature", "properties": { "자치구": "노원구", "행정동코드": 1135056000, "법정동": "월계동", "행정동": "월계1동", "시설명": "노원1호점 우리동네키움센터(월계문화아이휴센터)", "주소": "서울특별시 노원구 월계로42길 9", "Latitude": 37.6220774, "Longitude": 127.0526919 }, "geometry": { "type": "Point", "coordinates": [ 127.0526919, 37.6220774 ] } },
{ "type": "Feature", "properties": { "자치구": "노원구", "행정동코드": 1135062500, "법정동": "중계동", "행정동": "중계2.3동", "시설명": "노원19호점 우리동네키움센터(중계무지개 아이휴센터)", "주소": "서울특별시 노원구 동일로208길 19", "Latitude": 37.6431659, "Longitude": 127.0662365 }, "geometry": { "type": "Point", "coordinates": [ 127.0662365, 37.6431659 ] } },
{ "type": "Feature", "properties": { "자치구": "노원구", "행정동코드": 1135069500, "법정동": "상계동", "행정동": "상계6.7동", "시설명": "노원18호점 우리동네키움센터(상계1단지 아이휴센터)", "주소": "서울특별시 노원구 동일로213길 21", "Latitude": 37.647927, "Longitude": 127.0606824 }, "geometry": { "type": "Point", "coordinates": [ 127.0606824, 37.647927 ] } },
{ "type": "Feature", "properties": { "자치구": "노원구", "행정동코드": 1135069500, "법정동": "상계동", "행정동": "상계6.7동", "시설명": "노원17호점 우리동네키움센터(상계6단지 아이휴센터)", "주소": "서울특별시 노원구 노해로 508", "Latitude": 37.653688, "Longitude": 127.064743 }, "geometry": { "type": "Point", "coordinates": [ 127.064743, 37.653688 ] } },
{ "type": "Feature", "properties": { "자치구": "노원구", "행정동코드": 1135067000, "법정동": "상계동", "행정동": "상계5동", "시설명": "노원16호점 우리동네키움센터(상계다락 아이휴센터)", "주소": "서울특별시 노원구 한글비석로 426-12", "Latitude": 37.6625271, "Longitude": 127.0704476 }, "geometry": { "type": "Point", "coordinates": [ 127.0704476, 37.6625271 ] } },
{ "type": "Feature", "properties": { "자치구": "노원구", "행정동코드": 1135066500, "법정동": "상계동", "행정동": "상계3.4동", "시설명": "노원15호점 우리동네키움센터(상계동아불암 아이휴센터)", "주소": "서울특별시 노원구 덕릉로 780", "Latitude": 37.6669249, "Longitude": 127.0797349 }, "geometry": { "type": "Point", "coordinates": [ 127.0797349, 37.6669249 ] } },
{ "type": "Feature", "properties": { "자치구": "노원구", "행정동코드": 1135070000, "법정동": "상계동", "행정동": "상계8동", "시설명": "노원14호점 우리동네키움센터(상계15단지 아이휴센터)", "주소": "서울특별시 노원구 동일로227길 26", "Latitude": 37.6686255, "Longitude": 127.0533712 }, "geometry": { "type": "Point", "coordinates": [ 127.0533712, 37.6686255 ] } },
{ "type": "Feature", "properties": { "자치구": "노원구", "행정동코드": 1135057000, "법정동": "월계동", "행정동": "월계2동", "시설명": "노원13호점 우리동네키움센터(월계극동아이휴센터)", "주소": "서울특별시 노원구 덕릉로60길 266", "Latitude": 37.6291463, "Longitude": 127.0462466 }, "geometry": { "type": "Point", "coordinates": [ 127.0462466, 37.6291463 ] } },
{ "type": "Feature", "properties": { "자치구": "노원구", "행정동코드": 1135063000, "법정동": "상계동", "행정동": "상계1동", "시설명": "노원12호점 우리동네키움센터(은빛1단지아이휴센터)", "주소": "서울특별시 노원구 동일로245길 162", "Latitude": 37.6814892, "Longitude": 127.0537826 }, "geometry": { "type": "Point", "coordinates": [ 127.0537826, 37.6814892 ] } },
{ "type": "Feature", "properties": { "자치구": "노원구", "행정동코드": 1135061900, "법정동": "중계동", "행정동": "중계본동", "시설명": "노원11호점 우리동네키움센터(산마루아이휴센터)", "주소": "서울특별시 노원구 중계로14바길 43", "Latitude": 37.6504206, "Longitude": 127.0836579 }, "geometry": { "type": "Point", "coordinates": [ 127.0836579, 37.6504206 ] } },
{ "type": "Feature", "properties": { "자치구": "노원구", "행정동코드": 1135059500, "법정동": "공릉동", "행정동": "공릉1동", "시설명": "노원10호점 우리동네키움센터(공릉라이프아이휴센터)", "주소": "서울시 노원구 섬밭로 123", "Latitude": 37.6272665, "Longitude": 127.0685419 }, "geometry": { "type": "Point", "coordinates": [ 127.0685419, 37.6272665 ] } },
{ "type": "Feature", "properties": { "자치구": "구로구", "행정동코드": 1153073000, "법정동": "고척동", "행정동": "고척제2동", "시설명": "구로8호점 우리동네키움센터(고척2동)", "주소": "서울특별시 구로구 중앙로15길 80", "Latitude": 37.5069054, "Longitude": 126.8554897 }, "geometry": { "type": "Point", "coordinates": [ 126.8554897, 37.5069054 ] } },
{ "type": "Feature", "properties": { "자치구": "구로구", "행정동코드": 1153054000, "법정동": "구로동", "행정동": "구로제3동", "시설명": "구로7호점 융합형 우리동네키움센터", "주소": "서울특별시 구로구 디지털로32가길 50", "Latitude": 37.4813375, "Longitude": 126.89774 }, "geometry": { "type": "Point", "coordinates": [ 126.89774, 37.4813375 ] } },
{ "type": "Feature", "properties": { "자치구": "구로구", "행정동코드": 1153072000, "법정동": "고척동", "행정동": "고척제1동", "시설명": "구로6호점 우리동네키움센터(고척1동)", "주소": "서울특별시 구로구 중앙로1길 18-19", "Latitude": 37.498705, "Longitude": 126.8628448 }, "geometry": { "type": "Point", "coordinates": [ 126.8628448, 37.498705 ] } },
{ "type": "Feature", "properties": { "자치구": "구로구", "행정동코드": 1153078000, "법정동": "천왕동", "행정동": "오류제2동", "시설명": "구로5호점 우리동네키움센터(천왕동)", "주소": "서울특별시 구로구 천왕로 21", "Latitude": 37.4792388, "Longitude": 126.8394251 }, "geometry": { "type": "Point", "coordinates": [ 126.8394251, 37.4792388 ] } },
{ "type": "Feature", "properties": { "자치구": "구로구", "행정동코드": 1153052000, "법정동": "구로동", "행정동": "구로제1동", "시설명": "구로4호점 우리동네키움센터(구로1동)", "주소": "서울특별시 구로구 구일로4길 46", "Latitude": 37.4922564, "Longitude": 126.8771784 }, "geometry": { "type": "Point", "coordinates": [ 126.8771784, 37.4922564 ] } },
{ "type": "Feature", "properties": { "자치구": "구로구", "행정동코드": 1153053000, "법정동": "구로동", "행정동": "구로제2동", "시설명": "구로3호점 우리동네키움센터(구로2동)", "주소": "서울특별시 구로구 벚꽃로 484", "Latitude": 37.4973069, "Longitude": 126.8801438 }, "geometry": { "type": "Point", "coordinates": [ 126.8801438, 37.4973069 ] } },
{ "type": "Feature", "properties": { "자치구": "구로구", "행정동코드": 1153056000, "법정동": "구로동", "행정동": "구로제5동", "시설명": "구로2호점 우리동네키움센터(구로5동)", "주소": "서울특별시 구로구 구로중앙로34길 67", "Latitude": 37.5016568, "Longitude": 126.8864925 }, "geometry": { "type": "Point", "coordinates": [ 126.8864925, 37.5016568 ] } },
{ "type": "Feature", "properties": { "자치구": "구로구", "행정동코드": 1153076000, "법정동": "개봉동", "행정동": "개봉제3동", "시설명": "구로1호점 우리동네키움센터(개봉3동)", "주소": "서울특별시 구로구 개봉로11나길 23", "Latitude": 37.4885504, "Longitude": 126.8525155 }, "geometry": { "type": "Point", "coordinates": [ 126.8525155, 37.4885504 ] } },
{ "type": "Feature", "properties": { "자치구": "광진구", "행정동코드": 1121583000, "법정동": "자양동", "행정동": "자양제2동", "시설명": "광진2호점 우리동네키움센터(꿈 정함)", "주소": "서울특별시 광진구 자양로3가길 28", "Latitude": 37.5287746, "Longitude": 127.0845462 }, "geometry": { "type": "Point", "coordinates": [ 127.0845462, 37.5287746 ] } },
{ "type": "Feature", "properties": { "자치구": "광진구", "행정동코드": 1121584000, "법정동": "자양동", "행정동": "자양제3동", "시설명": "광진1호점 우리동네키움센터", "주소": "서울특별시 광진구 자양번영로 35", "Latitude": 37.5328611, "Longitude": 127.0752184 }, "geometry": { "type": "Point", "coordinates": [ 127.0752184, 37.5328611 ] } },
{ "type": "Feature", "properties": { "자치구": "강서구", "행정동코드": 1150063000, "법정동": "방화동", "행정동": "방화제1동", "시설명": "강서2호점 우리동네키움센터(방화3동)", "주소": "서울특별시 강서구 금낭화로 162", "Latitude": 37.5746758, "Longitude": 126.811399 }, "geometry": { "type": "Point", "coordinates": [ 126.811399, 37.5746758 ] } },
{ "type": "Feature", "properties": { "자치구": "강서구", "행정동코드": 1150051000, "법정동": "염창동", "행정동": "염창동", "시설명": "강서1호점 우리동네키움센터(염창동)", "주소": "서울특별시 강서구 양천로67길 93-22", "Latitude": 37.555989, "Longitude": 126.8718564 }, "geometry": { "type": "Point", "coordinates": [ 126.8718564, 37.555989 ] } },
{ "type": "Feature", "properties": { "자치구": "강동구", "행정동코드": 1174057000, "법정동": "암사동", "행정동": "암사제1동", "시설명": "강동1호점 우리동네키움센터(상상나루來키움센터)", "주소": "서울특별시 강동구 올림픽로98가길 28", "Latitude": 37.5505511, "Longitude": 127.1314297 }, "geometry": { "type": "Point", "coordinates": [ 127.1314297, 37.5505511 ] } },
{ "type": "Feature", "properties": { "자치구": "강남구", "행정동코드": 1168070000, "법정동": "자곡동", "행정동": "세곡동", "시설명": "강남4호점 우리동네키움센터(미미위 세곡 키움센터)", "주소": "서울특별시 강남구 밤고개로 231", "Latitude": 37.4737808, "Longitude": 127.1065697 }, "geometry": { "type": "Point", "coordinates": [ 127.1065697, 37.4737808 ] } },
{ "type": "Feature", "properties": { "자치구": "강남구", "행정동코드": 1168056500, "법정동": "청담동", "행정동": "청담동", "시설명": "강남3호점 우리동네키움센터(강남 다함께키움센터(청담))", "주소": "서울특별시 강남구 영동대로131길 26", "Latitude": 37.5203984, "Longitude": 127.0541271 }, "geometry": { "type": "Point", "coordinates": [ 127.0541271, 37.5203984 ] } },
{ "type": "Feature", "properties": { "자치구": "강남구", "행정동코드": 1168065000, "법정동": "역삼동", "행정동": "역삼2동", "시설명": "강남2호점 우리동네키움센터(강남 다함께키움센터(역삼))", "주소": "서울특별시 강남구 논현로64길 7", "Latitude": 37.4939252, "Longitude": 127.0408998 }, "geometry": { "type": "Point", "coordinates": [ 127.0408998, 37.4939252 ] } },
{ "type": "Feature", "properties": { "자치구": "강남구", "행정동코드": 1168072000, "법정동": "수서동", "행정동": "일원본동", "시설명": "강남1호점 우리동네키움센터(강남 다함께키움센터(태화))", "주소": "서울특별시 강남구 광평로 185", "Latitude": 37.4847491, "Longitude": 127.0934205 }, "geometry": { "type": "Point", "coordinates": [ 127.0934205, 37.4847491 ] } }
]
}
